{
	"meta": {
		"count": 3374,
		"countReturned": 25,
		"pageReturned": 1,
		"limit": 25,
		"pages": 135,
		"transactionId": "TLsqgBxyIYmq"
	},
	"data": [
		{
			"type": "orgs",
			"id": "12",
			"attributes": {
				"name": "Cat Rescue of Maryland, Inc.",
				"city": "Baltimore",
				"state": "MD",
				"postalcode": "21228",
				"postalcodePlus4": "3915",
				"country": "United States",
				"email": "catrescueofmd@mindspring.com",
				"url": "http:\/\/www.catrescueofmd.org",
				"facebookUrl": "None",
				"type": "Rescue",
				"isCommonapplicationAccepted": false,
				"lat": 39.26750183105469,
				"lon": -76.74459838867188,
				"coordinates": "39.2675, -76.7446",
				"citystate": "Catonsville, MD"
			}
		},
		{
			"type": "orgs",
			"id": "13",
			"attributes": {
				"name": "Prince Georges Feral Friends, SPCA, Inc.",
				"street": "P.O. Box 1036",
				"city": "Bowie",
				"state": "MD",
				"postalcode": "20718",
				"country": "United States",
				"phone": "(301) 262-6452",
				"url": "http:\/\/www.pgferals.org",
				"facebookUrl": "https:\/\/www.facebook.com\/pgferals",
				"serveAreas": "Prince George's County, Maryland",
				"type": "Shelter",
				"isCommonapplicationAccepted": false,
				"lat": 39.00640106201172,
				"lon": -76.77950286865234,
				"coordinates": "39.0064, -76.7795",
				"citystate": "Bowie, MD"
			}
		},
		{
			"type": "orgs",
			"id": "16",
			"attributes": {
				"name": "Animal Relief Fund",
				"street": "P.O. Box 10",
				"city": "Hollywood",
				"state": "MD",
				"postalcode": "20636",
				"country": "United States",
				"email": "info@animalrelieffund.org",
				"url": "https:\/\/www.animalrelieffund.org\/",
				"facebookUrl": "https:\/\/www.facebook.com\/Animal-Relief-Fund-ARF-272309059493160",
				"type": "Rescue",
				"isCommonapplicationAccepted": false,
				"lat": 38.349998474121094,
				"lon": -76.57389831542969,
				"coordinates": "38.35, -76.5739",
				"citystate": "Hollywood, MD"
			}
		},
		{
			"type": "orgs",
			"id": "22",
			"attributes": {
				"name": "LNF Dog Rescue Adoption Center",
				"city": "New Castle DE",
				"state": "DE",
				"postalcode": "19720",
				"postalcodePlus4": "1096",
				"country": "United States",
				"email": "lnfdogs@gmail.com",
				"url": "www.lnfdogs.org",
				"facebookUrl": "Marleen Oetzel",
				"serveAreas": "We adopt in the states of NJ PA MD & DE with a 2 hour one way radius from our location in New Castle DE 19720",
				"services": "adoption of dogs",
				"type": "Rescue",
				"isCommonapplicationAccepted": false,
				"lat": 39.63819885253906,
				"lon": -75.58719635009766,
				"coordinates": "39.6382, -75.5872",
				"citystate": "New Castle, DE"
			}
		},
		{
			"type": "orgs",
			"id": "23",
			"attributes": {
				"name": "The Feline Foundation of Greater Washington, Inc.",
				"street": "11160 C-1 S Lakes Dr #707",
				"city": "Reston",
				"state": "VA",
				"postalcode": "20191",
				"country": "United States",
				"phone": "(703) 920-8665",
				"email": "info@ffgw.org",
				"url": "http:\/\/www.ffgw.org",
				"facebookUrl": "https:\/\/www.facebook.com\/felinefoundationFFGW",
				"serveAreas": "The greater Washington, D.C. community: Arlngton, Fairfax, Loudoun, Montgomery Prince Georges and Prince William Counties, including the Cities of Alexandria, Falls Church, Washington and others.",
				"about": "FFGW is about transforming the fortunes of unwanted kittens & cats. We heal them, find forever homes & if an adoption fails, we begin again.",
				"services": "rescue, home-based foster care, adoptions, placement assistance to pet owners",
				"type": "Rescue",
				"isCommonapplicationAccepted": false,
				"lat": 38.93109893798828,
				"lon": -77.35140228271484,
				"coordinates": "38.9311, -77.3514",
				"citystate": "Reston, VA"
			}
		},
		{
			"type": "orgs",
			"id": "24",
			"attributes": {
				"name": "Lost Fantasy Rescue",
				"city": "Ceres",
				"state": "VA",
				"postalcode": "24318",
				"country": "United States",
				"email": "lostfantasystables@yahoo.com",
				"url": "www.lostfantasystables.org",
				"facebookUrl": "https:\/\/www.facebook.com\/lostfantasyrescue",
				"serveAreas": "VA & surrounding areas. Spay\/neuter assistance is limited to Bland & Wythe counties only",
				"adoptionProcess": "Pre adoption forms including references (personal & vet), home visit, adoption contract & adoption donation.",
				"about": "We work with the rescue, adoption & sanctuary of companion animals, equines and some exotics. We also provide spay\/neuter assistance as well as transport for other rescue groups. We pull from our local kill shelters as well as accepting owner surrendered animals. We are a no kill group who works hard to keep animals out of our kill shelter by intercepting them prior to them being sent. All our animals will stay with us until homes or other rescues can be found for them. We do NOT euthanize for space but for that reason we have a limited number of animals that we can take at any time.",
				"services": "Adoptions, foster, sanctuary, spay\/neuter assistance, transport help",
				"type": "Rescue",
				"isCommonapplicationAccepted": false,
				"lat": 37.015499114990234,
				"lon": -81.35900115966797,
				"coordinates": "37.0155, -81.359",
				"citystate": "Ceres, VA"
			}
		},
		{
			"type": "orgs",
			"id": "27",
			"attributes": {
				"name": "Olive Branch Animal Rescue & Refuge, Inc.",
				"street": "P.O. Box 183",
				"city": "Sistersville",
				"state": "WV",
				"postalcode": "26175",
				"country": "United States",
				"phone": "(304) 652-1010",
				"email": "olivebranchwv@gmail.com",
				"serveAreas": "All surrounding areas",
				"services": "Family Assistant Program, TNR for Community cats, and a pet food Pantry for people needing help",
				"type": "Rescue",
				"isCommonapplicationAccepted": false,
				"lat": 39.540199279785156,
				"lon": -80.96489715576172,
				"coordinates": "39.5402, -80.9649",
				"citystate": "Sistersville, WV"
			}
		},
		{
			"type": "orgs",
			"id": "30",
			"attributes": {
				"name": "Castaway Critters, the James A. Hueholt Memorial Foundation",
				"street": "P.O. Box 1421",
				"city": "Harrisburg",
				"state": "PA",
				"postalcode": "17105",
				"postalcodePlus4": "1421",
				"country": "United States",
				"phone": "(717) 831-5010",
				"email": "info@castawaycritters.org",
				"facebookUrl": "https:\/\/www.facebook.com\/Castaway-Critters-The-James-A-Hueholt-Memorial-Foundation-for-Animals-97502",
				"type": "Rescue",
				"isCommonapplicationAccepted": false,
				"lat": 40.27360153198242,
				"lon": -76.88469696044922,
				"coordinates": "40.2736, -76.8847",
				"citystate": "Harrisburg, PA"
			}
		},
		{
			"type": "orgs",
			"id": "35",
			"attributes": {
				"name": "Delaware Puppy Rescue",
				"city": "Hockessin",
				"state": "DE",
				"postalcode": "19707",
				"country": "United States",
				"email": "DelawarePetRescue@gmail.com",
				"url": "www.DelawarePetRescue.org",
				"facebookUrl": "Delaware Pet Rescue",
				"serveAreas": "DE, MD, NJ, PA, VA",
				"services": "Adoptions",
				"type": "Rescue",
				"isCommonapplicationAccepted": false,
				"lat": 39.786598205566406,
				"lon": -75.68499755859375,
				"coordinates": "39.7866, -75.685",
				"citystate": "Hockessin, DE"
			}
		},
		{
			"type": "orgs",
			"id": "41",
			"attributes": {
				"name": "Whimsical Animal Rescue, Inc.  of Sussex County Animal Association",
				"street": "P. O. Box 1697",
				"city": "Seaford",
				"state": "DE",
				"postalcode": "19973",
				"country": "United States",
				"email": "DelawareRescue@aol.com",
				"url": "http:\/\/www.delawarerescue.com\/",
				"facebookUrl": "https:\/\/www.facebook.com\/SussexCountyAnimalWhimsicalAnimalRescue",
				"serveAreas": "All of Delaware",
				"adoptionProcess": "adoption application, meet and greet, contract.",
				"services": "rescue, adoptions and rabies\/distemper clinics",
				"type": "Rescue",
				"isCommonapplicationAccepted": false,
				"lat": 38.63180160522461,
				"lon": -75.58270263671875,
				"coordinates": "38.6318, -75.5827",
				"citystate": "Seaford, DE"
			}
		},
		{
			"type": "orgs",
			"id": "43",
			"attributes": {
				"name": "Paws and Whiskers Animal Rescue Organization",
				"street": "RR 1, Box 150",
				"city": "Paw Paw",
				"state": "WV",
				"postalcode": "25434",
				"country": "United States",
				"phone": "(304) 496-7194",
				"email": "joyce.myers@frontiernet.net",
				"url": "http:\/\/www.pawsandwhiskers.info",
				"serveAreas": "Northern Virginia, Winchester, VA Frederick county, Front Royal, VA WV panhandle, PA, DC, MD, NJ, all of VA",
				"adoptionProcess": "Adoption form, contract, sterlization form, must spay & neuter, cannot tie dog outside, cannot crate for long hours, cannot give dod\/cat away, cannot put companion pet in any shelter, must train, must vet throughout life span of companion pet.",
				"about": "Paws and Whiskers is located on 25 acres surrounded by woods, we provide privacy for our companion pet. We prefer to pull from high kill shelters or shelters that use inhumane methods to kill animals. We are committed to helping pets, they have no voice, no rights, they are simply acted upon--they are killed. So many pets are abused and we hope in our small way to help these animals find a second chance in life.",
				"services": "adoptions, education,",
				"type": "Rescue",
				"isCommonapplicationAccepted": false,
				"lat": 39.480899810791016,
				"lon": -78.44920349121094,
				"coordinates": "39.4809, -78.4492",
				"citystate": "Paw Paw, WV"
			}
		},
		{
			"type": "orgs",
			"id": "44",
			"attributes": {
				"name": "Tampa Bay Beagle Rescue, Inc.",
				"street": "P.O. Box 271772",
				"city": "Tampa",
				"state": "FL",
				"postalcode": "33688",
				"postalcodePlus4": "1772",
				"country": "United States",
				"phone": "(813) 446-9663",
				"email": "info@tampabaybeaglerescue.org",
				"url": "www.tampabaybeaglerescue.org",
				"facebookUrl": "www.facebook\/tampabeaglerescue",
				"type": "Rescue",
				"isCommonapplicationAccepted": false,
				"lat": 28.005399703979492,
				"lon": -82.48770141601562,
				"coordinates": "28.0054, -82.4877",
				"citystate": "Tampa, FL"
			}
		},
		{
			"type": "orgs",
			"id": "50",
			"attributes": {
				"name": "Genesis Animal Rescue",
				"street": "PO Box 1985",
				"city": "Mattoon",
				"state": "IL",
				"postalcode": "61938",
				"country": "United States",
				"phone": "(800) 688-7934",
				"email": "info@genesisanimalrescue.org",
				"url": "http:\/\/www.genesisanimalrescue.org",
				"facebookUrl": "https:\/\/www.facebook.com\/GenesisAnimalRescue.org",
				"type": "Rescue",
				"isCommonapplicationAccepted": false,
				"lat": 39.47629928588867,
				"lon": -88.3594970703125,
				"coordinates": "39.4763, -88.3595",
				"citystate": "Mattoon, IL"
			}
		},
		{
			"type": "orgs",
			"id": "52",
			"attributes": {
				"name": "Animal Rescue Network \/ Reseau Secours Animal",
				"street": "P.O. Box 32203, St. Andr\u00e9 Station",
				"city": "Montreal",
				"state": "QC",
				"postalcode": "H2L 4Y5",
				"country": "Canada",
				"phone": "(514) 938-6215",
				"url": "http:\/\/www.animalrescuenetwork.org\/",
				"facebookUrl": "https:\/\/www.facebook.com\/rsa.arn",
				"serveAreas": "Montreal area",
				"adoptionProcess": "Complete a adoption form, interview with a volunteer from the adoption team, contrat adoption, fees adoption. For more informations see:\nhttp:\/\/www.animalrescuenetwork.org\/info\/adoption",
				"about": "Consult the following page:\nhttp:\/\/www.animalrescuenetwork.org\/info\/display?PageID=981",
				"services": "adoptions, rescue, spay-neuter, shelter",
				"type": "Rescue",
				"isCommonapplicationAccepted": false,
				"lat": 45.51679992675781,
				"lon": -73.55799865722656,
				"coordinates": "45.5168, -73.558",
				"citystate": "Montreal, QC"
			}
		},
		{
			"type": "orgs",
			"id": "53",
			"attributes": {
				"name": "Love of Animals, Inc.",
				"street": "P O Box 6344",
				"city": "Visalia",
				"state": "CA",
				"postalcode": "93290",
				"postalcodePlus4": "6344",
				"country": "United States",
				"url": "loveofanimals.org",
				"type": "Rescue",
				"isCommonapplicationAccepted": false,
				"lat": 36.32789993286133,
				"lon": -119.30000305175781,
				"coordinates": "36.3279, -119.3",
				"citystate": "Visalia, CA"
			}
		},
		{
			"type": "orgs",
			"id": "54",
			"attributes": {
				"name": "St. Louis Boxer Rescue",
				"street": "P.O. Box 190324",
				"city": "St. Louis",
				"state": "MO",
				"postalcode": "63119",
				"postalcodePlus4": "6324",
				"country": "United States",
				"phone": "(314) 558-1767",
				"type": "Rescue",
				"isCommonapplicationAccepted": false,
				"lat": 38.58919906616211,
				"lon": -90.34660339355469,
				"coordinates": "38.5892, -90.3466",
				"citystate": "Saint Louis, MO"
			}
		},
		{
			"type": "orgs",
			"id": "56",
			"attributes": {
				"name": "Pets-4-Pets Cat Rescue, Inc.",
				"street": "P.O. Box 350",
				"city": "New Market",
				"state": "MD",
				"postalcode": "21774",
				"country": "United States",
				"phone": "(240) 405-4564",
				"email": "pets4pets@gmail.com",
				"url": "http:\/\/pets-4-pets.rescuegroups.org",
				"facebookUrl": "https:\/\/www.facebook.com\/Pets4PetsCats",
				"type": "Rescue",
				"isCommonapplicationAccepted": false,
				"lat": 39.411598205566406,
				"lon": -77.27279663085938,
				"coordinates": "39.4116, -77.2728",
				"citystate": "New Market, MD"
			}
		},
		{
			"type": "orgs",
			"id": "64",
			"attributes": {
				"name": "Shore Animal Volunteer Enterprise",
				"street": "1594 Lakewood Road",
				"city": "Toms River",
				"state": "NJ",
				"postalcode": "08755",
				"country": "United States",
				"phone": "(732) 831-4291",
				"email": "SAVErescuegroups@gmail.com",
				"type": "Rescue",
				"isCommonapplicationAccepted": false,
				"lat": 40.005401611328125,
				"lon": -74.22560119628906,
				"coordinates": "40.0054, -74.2256",
				"citystate": "Toms River, NJ"
			}
		},
		{
			"type": "orgs",
			"id": "65",
			"attributes": {
				"name": "Hampshire County Animal Control",
				"street": "155 Kerr Drive",
				"city": "Augusta",
				"state": "WV",
				"postalcode": "26704",
				"country": "United States",
				"phone": "(304) 359-0226",
				"email": "hampshirecountyac@gmail.com",
				"url": "http:\/\/hampshirecountyanimalcontrol.petfinder.com",
				"type": "Shelter",
				"isCommonapplicationAccepted": false,
				"lat": 39.31520080566406,
				"lon": -78.60089874267578,
				"coordinates": "39.3152, -78.6009",
				"citystate": "Augusta, WV"
			}
		},
		{
			"type": "orgs",
			"id": "68",
			"attributes": {
				"name": "Changing Fates Equine Rescue of DE, Inc.",
				"street": "31283 Old Cabin Road",
				"city": "Laurel",
				"state": "DE",
				"postalcode": "19956",
				"country": "United States",
				"phone": "(302) 339-5065",
				"email": "cferdelaware@aol.com",
				"type": "Rescue",
				"isCommonapplicationAccepted": false,
				"lat": 38.54949951171875,
				"lon": -75.55059814453125,
				"coordinates": "38.5495, -75.5506",
				"citystate": "Laurel, DE"
			}
		},
		{
			"type": "orgs",
			"id": "70",
			"attributes": {
				"name": "Atlantic Rottweiler Rescue Foundation",
				"city": "Mooresville",
				"state": "NC",
				"postalcode": "28117",
				"country": "United States",
				"email": "arrf@arrfnc.com",
				"url": "www.arrfnc.com",
				"facebookUrl": "https:\/\/www.facebook.com\/pages\/Atlantic-Rottweiler-rescue-Foundation\/77129303881?",
				"adoptionUrl": "http:\/\/www.arrfnc.com\/info\/adoption",
				"donationUrl": "https:\/\/www.paypal.com\/us\/cgi-bin\/webscr?cmd=_flow&SESSION=jBN7RHRsjQ65AczGpLRx6vwB0BloWXF_tZg9WMuvAbUcplTRnZCP-u5Zkp4&dispatch=50a222a57771920b6a3d7b606239e4d529b525e0b7e69bf0224adecfb0124e9b61f737ba",
				"services": "Adoptions",
				"type": "Rescue",
				"isCommonapplicationAccepted": false,
				"lat": 35.57149887084961,
				"lon": -80.89600372314453,
				"coordinates": "35.5715, -80.896",
				"citystate": "Mooresville, NC"
			}
		},
		{
			"type": "orgs",
			"id": "71",
			"attributes": {
				"name": "The Cat Corner, Inc.",
				"street": "85 Fulton Street",
				"city": "Hampton",
				"state": "VA",
				"postalcode": "23663",
				"country": "United States",
				"phone": "(757) 722-0590",
				"email": "info@thecatcornerinc.com",
				"url": "http:\/\/www.thecatcornerinc.com",
				"facebookUrl": "https:\/\/www.facebook.com\/TheCatCornerInc",
				"adoptionUrl": "http:\/\/www.thecatcornerinc.com\/adopt.html",
				"donationUrl": "http:\/\/www.thecatcornerinc.com\/give.html",
				"sponsorshipUrl": "http:\/\/www.thecatcornerinc.com\/cat-sponsorship.html",
				"serveAreas": "Southeastern Virginia",
				"adoptionProcess": "We take great pride in finding good homes for the cats and kittens in our care. Please take the time to review the information on our this page. It will help you make the right selection for your household. When you adopt a cat, keep in mind that you\u2019ll be making a commitment that will last the lifetime of the cat\u2014perhaps 10, 15, or 20 years. Since your new cat will be with you for many years to come, our volunteers want to help you find the perfect cat to fit your lifestyle. Please visit our shelter to see what cats are currently waiting for a home and which would be the best match for your lifestyle. Learn more at: www.thecatcornerinc.com\/adoption-process",
				"about": "The Cat Corner, Inc. is a nonprofit, no-kill shelter that has been saving the lives of stray and homeless cats in Hampton Roads, Virginia for over three decades! \u200b",
				"services": "adoptions",
				"type": "Rescue",
				"isCommonapplicationAccepted": false,
				"lat": 37.034000396728516,
				"lon": -76.3196029663086,
				"coordinates": "37.034, -76.3196",
				"citystate": "Hampton, VA"
			}
		},
		{
			"type": "orgs",
			"id": "73",
			"attributes": {
				"name": "North Texas Basset Hound Rescue, Inc.",
				"street": "PO Box 3229",
				"city": "Grapevine",
				"state": "TX",
				"postalcode": "76099",
				"country": "United States",
				"email": "info@bassetrescuedfw.org",
				"url": "http:\/\/bassetrescuedfw.org",
				"facebookUrl": "http:\/\/www.facebook.com\/ntbhr",
				"adoptionUrl": "http:\/\/www.bassetrescuedfw.org\/info\/adoption",
				"donationUrl": "http:\/\/www.bassetrescuedfw.org\/info\/donate",
				"sponsorshipUrl": "http:\/\/www.bassetrescuedfw.org\/info\/sponsorship",
				"serveAreas": "All of North Texas from Abilene to Longview and the Oklahoma border to Austin, including the greater Dallas, Fort Worth area.",
				"adoptionProcess": "After verification of information on the application, we check the DNA List, then do vet check, phone interview and home visit.  Adopters sign an adoption  agreement, and must return the dog to is if they can no longer keep the animal.  Our fees are $150 for seniors, $200 for adults, $250 for dogs under 3, and $350 for puppies under one year, with a spay neuter contract",
				"about": "North Texas Basset Hound Rescue, Inc. is dedicated to the welfare of basset hounds. We were founded in 1984 and later formed as a committee under The Basset Hound Club of Greater Fort Worth. In 1997, NTBHR was incorporated as a nonprofit organization in the State of Texas. In June of 1998, NTBHR was classified as a 501(c)3 Charitable Organization by the IRS, meaning your gifts to us are tax-deductible.  Our Tax ID # is 75-2706935\n\nNorth Texas Basset Hound Rescue is organized for the following purposes:\n\nPrevent cruelty to animals, specifically basset hounds;\nSupport animal welfare by locating and retrieving homeless, unwanted and\/or mistreated basset hounds;\nProvide necessary funding for medical care, spaying and neutering, for unwanted and\/or mistreated basset hounds; and\nPlace homeless, unwanted, and or mistreated canine basset hounds in permanent, loving homes.\n \n\nThe general area of rescue is the Fort Worth and Dallas area, but we also cover many shelters in North Texas from Abilene to Waco, Longview to the Oklahoma border.  Money is spent to insure that the bassets are healthy, neutered or spayed, and treatment for heartworms. On occasion we must make the tough decision of euthanasia due to health problems or aggressive behavior. Rescue volunteers receive no compensation for their countless hours and transportation costs. NTBHR is very fortunate to have several veterinarians who provide excellent treatment at a reduced rate.  The rewards of a rescue volunteer come from knowing that a basset is getting a second chance and from a slobbery lick and a wagging tail.\n\nNorth Texas Basset Hound Rescue (NTBHR), an all-volunteer organization, rescued and re-homed 85 Basset Hounds in fiscal year 2012-13.  All animals are given medical care including spay\/neuter, heartworm treatment, dental care and micro-chipping.  Providing information on spay\/neuter programs, micro-chipping,  and participating in responsible pet ownership events  lets us achieve our goals of rescuing Basset Hounds and serving the community.  NTBHR has developed a Special Needs Fund, which is used to rehabilitate Basset Hounds that would not have otherwise been adoptable due to illness, mistreatment or injury.   Our goals for the current year are to increase our volunteer base, our foster care program, allowing us to rescue more Basset Hounds and to increase our fundraising to cover our increasing veterinary costs.",
				"services": "Vaccinations, spay\/neuter, heartworm treatment, microchiping, adoptions",
				"type": "Rescue",
				"isCommonapplicationAccepted": false,
				"lat": 32.934200286865234,
				"lon": -97.07749938964844,
				"coordinates": "32.9342, -97.0775",
				"citystate": "Grapevine, TX"
			}
		},
		{
			"type": "orgs",
			"id": "77",
			"attributes": {
				"name": "Happy Cat Adoptions",
				"street": "P.O. Box 41445",
				"city": "Houston",
				"state": "TX",
				"postalcode": "77241",
				"postalcodePlus4": "1445",
				"country": "United States",
				"phone": "(713) 385-1798",
				"email": "adoptme@happycatadoptions.org",
				"url": "http:\/\/www.happycatadoptions.org\/",
				"facebookUrl": "https:\/\/www.facebook.com\/happycatadoptions?ref=stream",
				"serveAreas": "Greater Houston area",
				"adoptionProcess": "Application, interview, contract, and donation",
				"about": "Happy Cat Adoptions is dedicated to making good matches for our foster cats and for adopting families. \n\nWe rescue, rehabilitate and rehome abandoned, stray, or homeless cats and kittens in the metropolitan Houston, Texas area, as well as providing information for cat care. We are active in \"trap, neuter, release\" programs, and are especially concerned with providing information and referrals for spay\/neuter education.",
				"services": "Adoptions, TNR, assistance when funds available",
				"type": "Rescue",
				"isCommonapplicationAccepted": false,
				"lat": 29.763200759887695,
				"lon": -95.36329650878906,
				"coordinates": "29.7632, -95.3633",
				"citystate": "Houston, TX"
			}
		},
		{
			"type": "orgs",
			"id": "81",
			"attributes": {
				"name": "Animal Advocates of Howard County",
				"street": "PO Box 1403",
				"city": "Ellicott City",
				"state": "MD",
				"postalcode": "21041",
				"country": "United States",
				"phone": "(410) 880-2488",
				"type": "Shelter",
				"isCommonapplicationAccepted": false,
				"lat": 39.26729965209961,
				"lon": -76.79859924316406,
				"coordinates": "39.2673, -76.7986",
				"citystate": "Ellicott City, MD"
			}
		}
	]
}